components/sealion-cubesat/Satellite-Astrogator-To-Facility-CGA_Access.csv

"Access","Start Time (UTCG)","Stop Time (UTCG)","Duration (sec)"
1,1 Nov 2023 18:01:04.089,1 Nov 2023 18:08:32.115,448.026
2,2 Nov 2023 10:42:31.826,2 Nov 2023 10:56:28.415,836.590
3,2 Nov 2023 12:43:07.344,2 Nov 2023 12:57:54.204,886.860
4,2 Nov 2023 14:45:17.531,2 Nov 2023 14:57:55.854,758.323
5,2 Nov 2023 16:47:46.459,2 Nov 2023 16:57:16.445,569.985
6,3 Nov 2023 09:30:05.709,3 Nov 2023 09:43:11.700,785.991
7,3 Nov 2023 11:29:24.240,3 Nov 2023 11:45:56.751,992.511
8,3 Nov 2023 13:31:24.401,3 Nov 2023 13:46:18.386,893.985
9,3 Nov 2023 15:34:06.011,3 Nov 2023 15:45:50.283,704.272
10,3 Nov 2023 17:37:19.624,3 Nov 2023 17:44:05.622,405.999
11,4 Nov 2023 08:19:11.728,4 Nov 2023 08:27:51.702,519.974
12,4 Nov 2023 10:15:43.975,4 Nov 2023 10:33:28.051,1064.076
13,4 Nov 2023 12:17:10.061,4 Nov 2023 12:34:27.027,1036.966
14,4 Nov 2023 14:19:57.342,4 Nov 2023 14:34:13.690,856.349
15,4 Nov 2023 16:23:04.076,4 Nov 2023 16:33:07.235,603.159
16,5 Nov 2023 09:02:26.508,5 Nov 2023 09:20:10.358,1063.850
17,5 Nov 2023 11:02:46.294,5 Nov 2023 11:22:13.580,1167.287
18,5 Nov 2023 13:05:22.164,5 Nov 2023 13:22:23.356,1021.192
19,5 Nov 2023 15:08:36.994,5 Nov 2023 15:21:40.090,783.095
20,5 Nov 2023 17:12:39.056,5 Nov 2023 17:19:13.656,394.600
21,6 Nov 2023 07:50:05.785,6 Nov 2023 08:05:28.966,923.180
22,6 Nov 2023 09:48:28.352,6 Nov 2023 10:09:27.966,1259.614
23,6 Nov 2023 11:50:28.543,6 Nov 2023 12:10:14.294,1185.750
24,6 Nov 2023 13:53:45.849,6 Nov 2023 14:09:52.733,966.884
25,6 Nov 2023 15:57:26.197,6 Nov 2023 16:08:26.487,660.290
26,7 Nov 2023 06:41:03.860,7 Nov 2023 06:46:54.906,351.046
27,7 Nov 2023 08:34:34.554,7 Nov 2023 08:55:55.725,1281.171
28,7 Nov 2023 10:35:29.572,7 Nov 2023 10:57:40.064,1330.492
29,7 Nov 2023 12:38:31.421,7 Nov 2023 12:57:45.294,1153.873
30,7 Nov 2023 14:42:14.244,7 Nov 2023 14:56:52.557,878.313
31,7 Nov 2023 16:46:58.016,7 Nov 2023 16:53:55.514,417.498
32,8 Nov 2023 07:21:30.204,8 Nov 2023 07:41:11.153,1180.949
33,8 Nov 2023 09:20:41.179,8 Nov 2023 09:44:32.076,1430.897
34,8 Nov 2023 11:23:02.848,8 Nov 2023 11:45:14.715,1331.867
35,8 Nov 2023 13:26:42.871,8 Nov 2023 13:44:50.128,1087.257
36,8 Nov 2023 15:30:52.328,8 Nov 2023 15:43:10.322,737.994
37,9 Nov 2023 06:10:15.655,9 Nov 2023 06:24:06.714,831.059
38,9 Nov 2023 08:06:20.446,9 Nov 2023 08:30:37.842,1457.395
39,9 Nov 2023 10:07:34.474,9 Nov 2023 10:32:15.897,1481.423
40,9 Nov 2023 12:10:52.821,9 Nov 2023 12:32:22.117,1289.296
41,9 Nov 2023 14:14:57.816,9 Nov 2023 14:31:24.505,986.689
42,9 Nov 2023 16:20:15.812,9 Nov 2023 16:28:07.607,471.795
43,10 Nov 2023 06:52:47.808,10 Nov 2023 07:15:36.115,1368.307
44,10 Nov 2023 08:52:22.335,10 Nov 2023 09:18:41.364,1579.030
45,10 Nov 2023 10:54:54.506,10 Nov 2023 11:19:26.906,1472.400
46,10 Nov 2023 12:58:49.322,10 Nov 2023 13:19:03.519,1214.197
47,10 Nov 2023 15:03:22.886,10 Nov 2023 15:17:15.236,832.350
48,11 Nov 2023 05:40:43.373,11 Nov 2023 05:58:38.938,1075.565
49,11 Nov 2023 07:37:41.899,11 Nov 2023 08:04:20.045,1598.146
50,11 Nov 2023 09:39:02.902,11 Nov 2023 10:06:00.363,1617.462
51,11 Nov 2023 11:42:28.369,11 Nov 2023 12:06:12.121,1423.752
52,11 Nov 2023 13:46:48.807,11 Nov 2023 14:05:13.448,1104.641
53,11 Nov 2023 15:52:34.452,11 Nov 2023 16:01:44.899,550.447
54,12 Nov 2023 06:23:49.857,12 Nov 2023 06:48:53.511,1503.654
55,12 Nov 2023 08:23:33.269,12 Nov 2023 08:51:55.942,1702.673
56,12 Nov 2023 10:26:06.259,12 Nov 2023 10:52:49.665,1603.405
57,12 Nov 2023 12:30:07.441,12 Nov 2023 12:52:31.103,1343.662
58,12 Nov 2023 14:34:59.301,12 Nov 2023 14:50:38.487,939.186
59,13 Nov 2023 05:11:16.355,13 Nov 2023 05:31:43.073,1226.718
60,13 Nov 2023 07:08:38.961,13 Nov 2023 07:37:03.757,1704.796
61,13 Nov 2023 09:09:57.656,13 Nov 2023 09:38:52.787,1735.131
62,13 Nov 2023 11:13:21.291,13 Nov 2023 11:39:13.994,1552.703
63,13 Nov 2023 13:17:49.622,13 Nov 2023 13:38:17.574,1227.952
64,13 Nov 2023 15:23:57.017,13 Nov 2023 15:34:43.026,646.009
65,14 Nov 2023 04:02:45.062,14 Nov 2023 04:09:48.905,423.842
66,14 Nov 2023 05:54:33.425,14 Nov 2023 06:21:07.523,1594.098
67,14 Nov 2023 07:54:16.107,14 Nov 2023 08:24:15.770,1799.663
68,14 Nov 2023 09:56:41.703,14 Nov 2023 10:25:22.104,1720.401
69,14 Nov 2023 12:00:40.783,14 Nov 2023 12:25:11.616,1470.833
70,14 Nov 2023 14:05:44.179,14 Nov 2023 14:23:18.111,1053.932
71,15 Nov 2023 04:41:40.775,15 Nov 2023 05:03:34.290,1313.516
72,15 Nov 2023 06:39:12.513,15 Nov 2023 07:08:49.863,1777.350
73,15 Nov 2023 08:40:21.933,15 Nov 2023 09:10:52.708,1830.775
74,15 Nov 2023 10:43:35.757,15 Nov 2023 11:11:26.843,1671.086
75,15 Nov 2023 12:48:04.003,15 Nov 2023 13:10:35.658,1351.655
76,15 Nov 2023 14:54:27.095,15 Nov 2023 15:06:58.982,751.887
77,16 Nov 2023 03:31:50.638,16 Nov 2023 03:42:19.649,629.010
78,16 Nov 2023 05:24:57.534,16 Nov 2023 05:52:20.770,1643.237
79,16 Nov 2023 07:24:33.129,16 Nov 2023 07:55:40.930,1867.802
80,16 Nov 2023 09:26:44.842,16 Nov 2023 09:57:03.661,1818.819
81,16 Nov 2023 11:30:33.922,16 Nov 2023 11:57:04.215,1590.293
82,16 Nov 2023 13:35:41.419,16 Nov 2023 13:55:12.796,1171.376
83,17 Nov 2023 04:11:51.392,17 Nov 2023 04:34:19.835,1348.443
84,17 Nov 2023 06:09:23.647,17 Nov 2023 06:39:39.303,1815.656
85,17 Nov 2023 08:10:18.920,17 Nov 2023 08:41:59.939,1901.019
86,17 Nov 2023 10:13:16.388,17 Nov 2023 10:42:50.098,1773.710
87,17 Nov 2023 12:17:36.779,17 Nov 2023 12:42:06.892,1470.113
88,17 Nov 2023 14:24:08.987,17 Nov 2023 14:38:30.857,861.870
89,18 Nov 2023 03:01:24.051,18 Nov 2023 03:13:04.565,700.514
90,18 Nov 2023 04:55:01.885,18 Nov 2023 05:22:35.627,1653.742
91,18 Nov 2023 06:54:26.414,18 Nov 2023 07:26:11.801,1905.387
92,18 Nov 2023 08:56:19.572,18 Nov 2023 09:27:54.044,1894.472
93,18 Nov 2023 10:59:51.947,18 Nov 2023 11:28:08.338,1696.391
94,18 Nov 2023 13:04:55.979,18 Nov 2023 13:26:21.649,1285.670
95,19 Nov 2023 03:41:45.695,19 Nov 2023 04:04:04.934,1339.239
96,19 Nov 2023 05:39:13.330,19 Nov 2023 06:09:33.347,1820.018
97,19 Nov 2023 07:39:51.424,19 Nov 2023 08:12:14.589,1943.165
98,19 Nov 2023 09:42:27.717,19 Nov 2023 10:13:23.407,1855.690
99,19 Nov 2023 11:46:33.389,19 Nov 2023 12:12:50.708,1577.319
100,19 Nov 2023 13:53:07.791,19 Nov 2023 14:09:17.396,969.605
101,20 Nov 2023 02:30:57.873,20 Nov 2023 02:42:34.944,697.071
102,20 Nov 2023 04:24:46.381,20 Nov 2023 04:51:54.745,1628.364
103,20 Nov 2023 06:23:57.613,20 Nov 2023 06:55:49.116,1911.503
104,20 Nov 2023 08:25:29.321,20 Nov 2023 08:57:53.159,1943.838
105,20 Nov 2023 10:28:39.914,20 Nov 2023 10:58:23.601,1783.687
106,20 Nov 2023 12:33:33.481,20 Nov 2023 12:56:43.983,1390.502
107,21 Nov 2023 03:11:22.239,21 Nov 2023 03:32:54.443,1292.204
108,21 Nov 2023 05:08:42.196,21 Nov 2023 05:38:33.722,1791.526
109,21 Nov 2023 07:09:01.616,21 Nov 2023 07:41:37.023,1955.408
110,21 Nov 2023 09:11:13.714,21 Nov 2023 09:43:06.561,1912.847
111,21 Nov 2023 11:14:59.252,21 Nov 2023 11:42:46.609,1667.357
112,21 Nov 2023 13:21:29.213,21 Nov 2023 13:39:17.633,1068.420
113,22 Nov 2023 02:00:24.525,22 Nov 2023 02:11:02.944,638.419
114,22 Nov 2023 03:54:10.809,22 Nov 2023 04:20:21.314,1570.505
115,22 Nov 2023 05:53:07.814,22 Nov 2023 06:24:34.026,1886.212
116,22 Nov 2023 07:54:16.746,22 Nov 2023 08:27:01.113,1964.367
117,22 Nov 2023 09:57:02.280,22 Nov 2023 10:27:49.638,1847.358
118,22 Nov 2023 12:01:39.635,22 Nov 2023 12:26:19.125,1479.490
119,23 Nov 2023 02:40:39.927,23 Nov 2023 03:00:53.437,1213.510
120,23 Nov 2023 04:37:50.496,23 Nov 2023 05:06:42.755,1732.259
121,23 Nov 2023 06:37:50.939,23 Nov 2023 07:10:07.928,1936.989
122,23 Nov 2023 08:39:37.484,23 Nov 2023 09:11:59.385,1941.902
123,23 Nov 2023 10:42:59.261,23 Nov 2023 11:11:54.049,1734.789
124,23 Nov 2023 12:49:19.150,23 Nov 2023 13:08:30.575,1151.425
125,24 Nov 2023 01:29:42.282,24 Nov 2023 01:38:35.189,532.907
126,24 Nov 2023 03:23:14.726,24 Nov 2023 03:47:59.158,1484.433
127,24 Nov 2023 05:21:57.514,24 Nov 2023 05:52:28.193,1830.678
128,24 Nov 2023 07:22:43.622,24 Nov 2023 07:55:18.185,1954.563
129,24 Nov 2023 09:25:02.577,24 Nov 2023 09:56:26.034,1883.457
130,24 Nov 2023 11:29:19.678,24 Nov 2023 11:55:06.275,1546.597
131,24 Nov 2023 13:41:42.610,24 Nov 2023 13:45:52.297,249.687
132,25 Nov 2023 02:09:37.753,25 Nov 2023 02:28:07.261,1109.508
133,25 Nov 2023 04:06:38.007,25 Nov 2023 04:34:03.457,1645.450
134,25 Nov 2023 06:06:20.120,25 Nov 2023 06:37:48.393,1888.273
135,25 Nov 2023 08:07:41.151,25 Nov 2023 08:40:01.821,1940.670
136,25 Nov 2023 10:10:37.336,25 Nov 2023 10:40:12.371,1775.034
137,25 Nov 2023 12:16:43.224,25 Nov 2023 12:36:55.002,1211.777
138,26 Nov 2023 00:58:55.641,26 Nov 2023 01:05:11.986,376.345
139,26 Nov 2023 02:51:57.406,26 Nov 2023 03:14:52.768,1375.362
140,26 Nov 2023 04:50:26.649,26 Nov 2023 05:19:33.926,1747.277
141,26 Nov 2023 06:50:50.886,26 Nov 2023 07:22:44.960,1914.074
142,26 Nov 2023 08:52:43.264,26 Nov 2023 09:24:12.404,1889.140
143,26 Nov 2023 10:56:37.987,26 Nov 2023 11:23:04.431,1586.444
144,26 Nov 2023 13:08:50.840,26 Nov 2023 13:13:56.564,305.724
145,27 Nov 2023 01:38:14.650,27 Nov 2023 01:54:41.431,986.781
146,27 Nov 2023 03:35:04.139,27 Nov 2023 04:00:39.613,1535.475
147,27 Nov 2023 05:34:29.215,27 Nov 2023 06:04:40.112,1810.897
148,27 Nov 2023 07:35:25.882,27 Nov 2023 08:07:14.019,1908.137
149,27 Nov 2023 09:37:56.345,27 Nov 2023 10:07:40.840,1784.495
150,27 Nov 2023 11:43:46.440,27 Nov 2023 12:04:29.386,1242.946
151,28 Nov 2023 00:29:07.353,28 Nov 2023 00:29:54.836,47.483
152,28 Nov 2023 02:20:17.850,28 Nov 2023 02:41:07.208,1249.358
153,28 Nov 2023 04:18:34.703,28 Nov 2023 04:45:54.366,1639.663
154,28 Nov 2023 06:18:38.764,28 Nov 2023 06:49:22.589,1843.825
155,28 Nov 2023 08:20:05.818,28 Nov 2023 08:51:08.528,1862.711
156,28 Nov 2023 10:23:37.937,28 Nov 2023 10:50:12.497,1594.560
157,28 Nov 2023 12:36:08.979,28 Nov 2023 12:40:39.077,270.098
158,29 Nov 2023 01:06:29.451,29 Nov 2023 01:20:41.336,851.885
159,29 Nov 2023 03:03:07.947,29 Nov 2023 03:26:35.788,1407.841
160,29 Nov 2023 05:02:17.814,29 Nov 2023 05:30:45.621,1707.807
161,29 Nov 2023 07:02:52.119,29 Nov 2023 07:33:36.668,1844.549
162,29 Nov 2023 09:04:58.153,29 Nov 2023 09:34:18.888,1760.735
163,29 Nov 2023 11:10:33.094,29 Nov 2023 11:31:11.905,1238.811
164,30 Nov 2023 01:48:14.781,30 Nov 2023 02:06:47.849,1113.068
165,30 Nov 2023 03:46:20.817,30 Nov 2023 04:11:33.581,1512.764
166,30 Nov 2023 05:46:06.968,30 Nov 2023 06:15:13.090,1746.122
167,30 Nov 2023 07:47:10.940,30 Nov 2023 08:17:14.702,1803.762
168,30 Nov 2023 09:50:21.966,30 Nov 2023 10:16:29.466,1567.501
169,1 Dec 2023 00:34:20.914,1 Dec 2023 00:46:11.818,710.903
170,1 Dec 2023 02:30:48.249,1 Dec 2023 02:51:57.158,1268.908
171,1 Dec 2023 04:29:45.156,1 Dec 2023 04:56:08.539,1583.383
172,1 Dec 2023 06:29:59.736,1 Dec 2023 06:59:11.351,1751.615
173,1 Dec 2023 08:31:43.836,1 Dec 2023 09:00:06.438,1702.602
174,1 Dec 2023 10:37:07.016,1 Dec 2023 10:57:00.497,1193.481
175,2 Dec 2023 01:15:46.721,2 Dec 2023 01:32:00.077,973.356
176,2 Dec 2023 03:13:43.926,2 Dec 2023 03:36:36.530,1372.604
177,2 Dec 2023 05:13:14.891,2 Dec 2023 05:40:19.660,1624.770
178,2 Dec 2023 07:13:58.776,2 Dec 2023 07:42:32.105,1713.329
179,2 Dec 2023 09:16:51.871,2 Dec 2023 09:41:54.722,1502.851
180,3 Dec 2023 00:01:47.692,3 Dec 2023 00:11:16.946,569.253
181,3 Dec 2023 01:58:03.701,3 Dec 2023 02:16:49.231,1125.530
182,3 Dec 2023 03:56:50.344,3 Dec 2023 04:20:53.561,1443.217
183,3 Dec 2023 05:56:48.357,3 Dec 2023 06:24:00.856,1632.499
184,3 Dec 2023 07:58:14.005,3 Dec 2023 08:25:04.253,1610.248
185,3 Dec 2023 10:03:32.160,3 Dec 2023 10:21:52.703,1100.544
186,4 Dec 2023 00:42:51.939,4 Dec 2023 00:56:48.946,837.008
187,4 Dec 2023 02:40:42.880,4 Dec 2023 03:01:08.779,1225.899
188,4 Dec 2023 04:40:01.836,4 Dec 2023 05:04:46.732,1484.895
189,4 Dec 2023 06:40:29.267,4 Dec 2023 07:07:03.166,1593.899
190,4 Dec 2023 08:43:09.171,4 Dec 2023 09:06:28.285,1399.114
191,4 Dec 2023 23:28:48.145,4 Dec 2023 23:36:00.017,431.873
192,5 Dec 2023 01:24:52.828,5 Dec 2023 01:41:17.446,984.617
193,5 Dec 2023 03:23:32.451,5 Dec 2023 03:45:06.282,1293.831
194,5 Dec 2023 05:23:17.540,5 Dec 2023 05:48:09.367,1491.827
195,5 Dec 2023 07:24:29.141,5 Dec 2023 07:49:14.259,1485.118
196,5 Dec 2023 09:29:54.179,5 Dec 2023 09:45:44.789,950.610
197,6 Dec 2023 00:09:28.307,6 Dec 2023 00:21:19.124,710.817
198,6 Dec 2023 02:07:16.499,6 Dec 2023 02:25:16.103,1079.604
199,6 Dec 2023 04:06:27.134,6 Dec 2023 04:28:39.866,1332.732
200,6 Dec 2023 06:06:42.365,6 Dec 2023 06:30:51.716,1449.351
201,6 Dec 2023 08:09:15.747,6 Dec 2023 08:30:10.904,1255.157
202,6 Dec 2023 22:55:19.355,6 Dec 2023 23:00:24.657,305.302
203,7 Dec 2023 00:51:13.962,7 Dec 2023 01:05:26.885,852.923
204,7 Dec 2023 02:49:50.599,7 Dec 2023 03:08:52.754,1142.155
205,7 Dec 2023 04:49:26.965,7 Dec 2023 05:11:42.320,1335.355
206,7 Dec 2023 06:50:29.965,7 Dec 2023 07:12:39.677,1329.712
207,7 Dec 2023 08:56:25.272,7 Dec 2023 09:08:27.524,722.252
208,7 Dec 2023 23:35:32.930,7 Dec 2023 23:45:35.126,602.196
209,8 Dec 2023 01:33:23.523,8 Dec 2023 01:49:04.043,940.520
210,8 Dec 2023 03:32:30.260,8 Dec 2023 03:52:05.301,1175.041
211,8 Dec 2023 05:32:38.281,8 Dec 2023 05:54:02.883,1284.602
212,8 Dec 2023 07:35:14.750,8 Dec 2023 07:53:03.589,1068.840
213,8 Dec 2023 22:21:12.923,8 Dec 2023 22:24:39.130,206.207
214,9 Dec 2023 00:17:04.983,9 Dec 2023 00:29:22.242,737.259
215,9 Dec 2023 02:15:43.924,9 Dec 2023 02:32:18.958,995.034
216,9 Dec 2023 04:15:16.516,9 Dec 2023 04:34:45.965,1169.449
217,9 Dec 2023 06:16:17.859,9 Dec 2023 06:35:24.666,1146.807
218,9 Dec 2023 08:24:02.164,9 Dec 2023 08:29:08.613,306.449
219,9 Dec 2023 23:01:01.545,9 Dec 2023 23:09:41.927,520.381
220,10 Dec 2023 00:59:02.388,10 Dec 2023 01:12:37.674,815.286
221,10 Dec 2023 02:58:10.736,10 Dec 2023 03:15:09.337,1018.601
222,10 Dec 2023 04:58:17.625,10 Dec 2023 05:16:42.536,1104.911
223,10 Dec 2023 07:01:12.976,10 Dec 2023 07:15:05.287,832.311
224,10 Dec 2023 21:46:04.974,10 Dec 2023 21:49:06.600,181.626
225,10 Dec 2023 23:42:22.963,10 Dec 2023 23:53:07.989,645.026
226,11 Dec 2023 01:41:11.298,11 Dec 2023 01:55:30.381,859.083
227,11 Dec 2023 03:40:46.243,11 Dec 2023 03:57:26.651,1000.409
228,11 Dec 2023 05:41:55.539,11 Dec 2023 05:57:33.276,937.736
229,11 Dec 2023 22:25:48.489,11 Dec 2023 22:33:45.055,476.566
230,12 Dec 2023 00:24:10.838,12 Dec 2023 00:36:01.589,710.750
231,12 Dec 2023 02:23:27.897,12 Dec 2023 02:37:57.759,869.862
232,12 Dec 2023 04:23:41.573,12 Dec 2023 04:38:56.337,914.763
233,12 Dec 2023 06:27:32.120,12 Dec 2023 06:36:01.304,509.184
234,12 Dec 2023 21:09:43.393,12 Dec 2023 21:13:58.000,254.607
235,12 Dec 2023 23:07:03.929,12 Dec 2023 23:16:48.534,584.605
236,13 Dec 2023 01:06:10.984,13 Dec 2023 01:18:31.868,740.884
237,13 Dec 2023 03:05:56.216,13 Dec 2023 03:19:50.059,833.843
238,13 Dec 2023 05:07:29.122,13 Dec 2023 05:19:06.545,697.423
239,13 Dec 2023 21:49:48.775,13 Dec 2023 21:57:48.597,479.822
240,13 Dec 2023 23:48:45.590,13 Dec 2023 23:59:20.060,634.470
241,14 Dec 2023 01:48:20.520,14 Dec 2023 02:00:35.537,735.017
242,14 Dec 2023 03:48:52.309,14 Dec 2023 04:00:48.310,716.001
243,14 Dec 2023 20:32:32.421,14 Dec 2023 20:38:47.633,375.211
244,14 Dec 2023 22:31:03.582,14 Dec 2023 22:40:27.542,563.960
245,15 Dec 2023 00:30:40.083,15 Dec 2023 00:41:27.782,647.700
246,15 Dec 2023 02:30:46.206,15 Dec 2023 02:42:00.654,674.449
247,15 Dec 2023 04:33:19.796,15 Dec 2023 04:39:49.804,390.009
248,15 Dec 2023 19:15:58.260,15 Dec 2023 19:18:54.521,176.261
249,15 Dec 2023 21:13:01.612,15 Dec 2023 21:21:51.865,530.253
250,15 Dec 2023 23:12:42.453,15 Dec 2023 23:22:36.874,594.421
251,16 Dec 2023 01:12:46.125,16 Dec 2023 01:23:07.044,620.919
252,16 Dec 2023 03:13:54.713,16 Dec 2023 03:22:18.209,503.495
253,16 Dec 2023 19:54:45.035,16 Dec 2023 20:03:21.041,516.007
254,16 Dec 2023 21:54:19.224,16 Dec 2023 22:04:06.172,586.948
255,16 Dec 2023 23:54:34.318,17 Dec 2023 00:04:22.228,587.910
256,17 Dec 2023 01:55:15.171,17 Dec 2023 02:04:01.757,526.586
257,17 Dec 2023 18:36:30.868,17 Dec 2023 18:44:32.193,481.325
258,17 Dec 2023 20:35:30.267,17 Dec 2023 20:45:49.788,619.522
259,17 Dec 2023 22:35:57.710,17 Dec 2023 22:45:54.196,596.486
260,18 Dec 2023 00:36:40.264,18 Dec 2023 00:45:36.775,536.511
261,18 Dec 2023 02:39:09.010,18 Dec 2023 02:43:08.361,239.350
262,18 Dec 2023 17:19:05.146,18 Dec 2023 17:24:34.597,329.452
263,18 Dec 2023 19:16:24.317,18 Dec 2023 19:27:33.944,669.627
264,18 Dec 2023 21:16:51.181,18 Dec 2023 21:27:42.003,650.822
265,18 Dec 2023 23:17:48.880,18 Dec 2023 23:27:18.414,569.535
266,19 Dec 2023 01:19:19.994,19 Dec 2023 01:25:56.674,396.680
267,19 Dec 2023 17:57:17.237,19 Dec 2023 18:08:59.729,702.492
268,19 Dec 2023 19:57:18.825,19 Dec 2023 20:09:36.521,737.696
269,19 Dec 2023 21:58:29.943,19 Dec 2023 22:09:11.006,641.063
270,19 Dec 2023 23:59:56.465,20 Dec 2023 00:08:09.531,493.066
271,20 Dec 2023 16:38:35.607,20 Dec 2023 16:49:39.093,663.486
272,20 Dec 2023 18:37:31.484,20 Dec 2023 18:51:24.572,833.088
273,20 Dec 2023 20:38:41.836,20 Dec 2023 20:51:10.312,748.477
274,20 Dec 2023 22:40:20.636,20 Dec 2023 22:50:16.755,596.119
275,21 Dec 2023 00:42:52.328,21 Dec 2023 00:47:52.019,299.691
276,21 Dec 2023 15:21:34.100,21 Dec 2023 15:28:15.275,401.174
277,21 Dec 2023 17:17:45.287,21 Dec 2023 17:32:50.550,905.263
278,21 Dec 2023 19:18:30.621,21 Dec 2023 19:33:07.454,876.832
279,21 Dec 2023 21:20:20.313,21 Dec 2023 21:32:23.286,722.973
280,21 Dec 2023 23:22:28.750,21 Dec 2023 23:30:48.285,499.535
281,22 Dec 2023 15:58:23.711,22 Dec 2023 16:13:32.696,908.985
282,22 Dec 2023 17:58:08.356,22 Dec 2023 18:14:51.631,1003.275
283,22 Dec 2023 19:59:54.060,22 Dec 2023 20:14:26.214,872.154
284,22 Dec 2023 22:02:09.612,22 Dec 2023 22:13:13.844,664.232
285,23 Dec 2023 00:05:34.785,23 Dec 2023 00:10:01.914,267.129
286,23 Dec 2023 14:40:11.152,23 Dec 2023 14:52:46.342,755.190
287,23 Dec 2023 16:37:52.365,23 Dec 2023 16:56:09.839,1097.474
288,23 Dec 2023 18:39:08.687,23 Dec 2023 18:56:19.180,1030.493
289,23 Dec 2023 20:41:31.210,23 Dec 2023 20:55:25.894,834.684
290,23 Dec 2023 22:44:15.505,23 Dec 2023 22:53:30.825,555.320
291,24 Dec 2023 15:18:05.658,24 Dec 2023 15:36:43.349,1117.691
292,24 Dec 2023 17:18:18.045,24 Dec 2023 17:37:53.755,1175.709
293,24 Dec 2023 19:20:30.769,24 Dec 2023 19:37:25.578,1014.809
294,24 Dec 2023 21:23:17.979,24 Dec 2023 21:36:04.118,766.139
295,24 Dec 2023 23:27:15.249,24 Dec 2023 23:32:34.232,318.983
296,25 Dec 2023 13:59:24.551,25 Dec 2023 14:15:56.040,991.489
297,25 Dec 2023 15:57:41.033,25 Dec 2023 16:18:58.621,1277.588
298,25 Dec 2023 17:59:16.688,25 Dec 2023 18:19:09.034,1192.346
299,25 Dec 2023 20:02:05.350,25 Dec 2023 20:18:14.148,968.798
300,25 Dec 2023 22:05:19.449,25 Dec 2023 22:16:10.471,651.022
301,26 Dec 2023 12:44:01.114,26 Dec 2023 12:51:27.712,446.598
302,26 Dec 2023 14:37:40.315,26 Dec 2023 14:59:16.614,1296.299
303,26 Dec 2023 16:38:05.095,26 Dec 2023 17:00:29.419,1344.325
304,26 Dec 2023 18:40:35.464,26 Dec 2023 19:00:05.121,1169.657
305,26 Dec 2023 20:43:48.497,26 Dec 2023 20:58:42.118,893.621
306,26 Dec 2023 22:48:04.590,26 Dec 2023 22:55:13.648,429.058
307,27 Dec 2023 13:18:47.737,27 Dec 2023 13:38:15.108,1167.371
308,27 Dec 2023 15:17:15.915,27 Dec 2023 15:41:16.434,1440.519
309,27 Dec 2023 17:18:59.370,27 Dec 2023 17:41:34.692,1355.322
310,27 Dec 2023 19:22:05.950,27 Dec 2023 19:40:44.246,1118.296
311,27 Dec 2023 21:25:44.362,27 Dec 2023 21:38:40.105,775.743
312,28 Dec 2023 12:02:35.534,28 Dec 2023 12:14:11.345,695.812
313,28 Dec 2023 13:57:10.573,28 Dec 2023 14:21:13.716,1443.143
314,28 Dec 2023 15:57:35.073,28 Dec 2023 16:22:36.957,1501.884
315,28 Dec 2023 18:00:12.690,28 Dec 2023 18:22:22.099,1329.408
316,28 Dec 2023 20:03:44.293,28 Dec 2023 20:21:03.435,1039.142
317,28 Dec 2023 22:08:14.946,28 Dec 2023 22:17:44.143,569.197
318,29 Dec 2023 12:38:17.246,29 Dec 2023 12:59:50.138,1292.892
319,29 Dec 2023 14:36:42.220,29 Dec 2023 15:03:02.179,1579.960
320,29 Dec 2023 16:38:22.472,29 Dec 2023 17:03:34.030,1511.559
321,29 Dec 2023 18:41:37.275,29 Dec 2023 19:02:53.111,1275.836
322,29 Dec 2023 20:45:33.742,29 Dec 2023 21:00:54.263,920.521
323,30 Dec 2023 11:21:54.791,30 Dec 2023 11:35:33.704,818.913
324,30 Dec 2023 13:16:39.908,30 Dec 2023 13:42:34.427,1554.519
325,30 Dec 2023 15:16:53.894,30 Dec 2023 15:44:14.615,1640.721
326,30 Dec 2023 17:19:28.116,30 Dec 2023 17:44:14.123,1486.006
327,30 Dec 2023 19:23:09.311,30 Dec 2023 19:43:04.639,1195.328
328,30 Dec 2023 21:27:51.561,30 Dec 2023 21:39:57.857,726.296
329,31 Dec 2023 11:57:53.134,31 Dec 2023 12:20:43.102,1369.968
330,31 Dec 2023 13:56:04.753,31 Dec 2023 14:24:14.494,1689.741
331,31 Dec 2023 15:57:32.224,31 Dec 2023 16:25:05.005,1652.781
332,31 Dec 2023 18:00:44.774,31 Dec 2023 18:24:38.165,1433.390
333,31 Dec 2023 20:04:51.399,31 Dec 2023 20:22:49.034,1077.634
334,31 Dec 2023 22:12:06.467,31 Dec 2023 22:16:48.233,281.765
335,1 Jan 2024 10:41:36.977,1 Jan 2024 10:55:57.851,860.874
336,1 Jan 2024 12:36:11.197,1 Jan 2024 13:03:18.025,1626.828
337,1 Jan 2024 14:36:07.009,1 Jan 2024 15:05:20.620,1753.612
338,1 Jan 2024 16:38:28.105,1 Jan 2024 17:05:39.003,1630.898
339,1 Jan 2024 18:42:08.749,1 Jan 2024 19:04:42.975,1354.226
340,1 Jan 2024 20:46:57.636,1 Jan 2024 21:01:50.829,893.193
341,2 Jan 2024 11:17:35.794,2 Jan 2024 11:40:54.691,1398.897
342,2 Jan 2024 13:15:27.318,2 Jan 2024 13:44:51.985,1764.667
343,2 Jan 2024 15:16:34.550,2 Jan 2024 15:46:05.667,1771.117
344,2 Jan 2024 17:19:34.822,2 Jan 2024 17:45:57.117,1582.294
345,2 Jan 2024 19:23:42.172,2 Jan 2024 19:44:21.474,1239.302
346,2 Jan 2024 21:30:19.454,2 Jan 2024 21:39:21.867,542.413
347,3 Jan 2024 10:01:37.156,3 Jan 2024 10:15:29.641,832.485
348,3 Jan 2024 11:55:46.284,3 Jan 2024 12:23:23.870,1657.585
349,3 Jan 2024 13:55:18.859,3 Jan 2024 14:25:53.321,1834.462
350,3 Jan 2024 15:57:18.966,3 Jan 2024 16:26:34.702,1755.736
351,3 Jan 2024 18:00:48.882,3 Jan 2024 18:25:56.067,1507.185
352,3 Jan 2024 20:05:37.056,3 Jan 2024 20:23:20.539,1063.483
353,4 Jan 2024 10:37:25.311,4 Jan 2024 11:00:25.583,1380.273
354,4 Jan 2024 12:34:52.443,4 Jan 2024 13:04:53.558,1801.115
355,4 Jan 2024 14:35:34.451,4 Jan 2024 15:06:34.229,1859.778
356,4 Jan 2024 16:38:14.012,4 Jan 2024 17:06:47.877,1713.865
357,4 Jan 2024 18:42:12.122,4 Jan 2024 19:05:29.197,1397.074
358,4 Jan 2024 20:48:30.617,4 Jan 2024 21:01:06.630,756.014
359,5 Jan 2024 09:21:55.615,5 Jan 2024 09:34:10.295,734.679
360,5 Jan 2024 11:15:25.987,5 Jan 2024 11:42:51.862,1645.875
361,5 Jan 2024 13:14:32.527,5 Jan 2024 13:45:51.380,1878.853
362,5 Jan 2024 15:16:06.217,5 Jan 2024 15:46:59.358,1853.141
363,5 Jan 2024 17:19:16.476,5 Jan 2024 17:46:41.817,1645.341
364,5 Jan 2024 19:23:55.140,5 Jan 2024 19:44:25.013,1229.873
365,6 Jan 2024 09:57:21.401,6 Jan 2024 10:19:17.190,1315.789
366,6 Jan 2024 11:54:21.416,6 Jan 2024 12:24:18.734,1797.318
367,6 Jan 2024 13:54:35.590,6 Jan 2024 14:26:29.208,1913.618
368,6 Jan 2024 15:56:48.375,6 Jan 2024 16:27:08.565,1820.190
369,6 Jan 2024 18:00:28.062,6 Jan 2024 18:26:10.144,1542.082
370,6 Jan 2024 20:06:27.780,6 Jan 2024 20:22:17.635,949.854
371,7 Jan 2024 08:42:39.771,7 Jan 2024 08:51:55.090,555.318
372,7 Jan 2024 10:35:10.313,7 Jan 2024 11:01:42.922,1592.609
373,7 Jan 2024 12:33:49.786,7 Jan 2024 13:05:14.041,1884.255
374,7 Jan 2024 14:34:54.131,7 Jan 2024 15:06:51.405,1917.274
375,7 Jan 2024 16:37:37.983,7 Jan 2024 17:06:58.331,1760.348
376,7 Jan 2024 18:41:58.374,7 Jan 2024 19:05:02.503,1384.129
377,7 Jan 2024 20:52:47.015,7 Jan 2024 20:56:19.767,212.752
378,8 Jan 2024 09:17:23.651,8 Jan 2024 09:37:32.068,1208.417
379,8 Jan 2024 11:13:54.551,8 Jan 2024 11:43:08.010,1753.459
380,8 Jan 2024 13:13:40.234,8 Jan 2024 13:45:49.642,1929.408
381,8 Jan 2024 15:15:22.742,8 Jan 2024 15:46:57.546,1894.804
382,8 Jan 2024 17:18:36.737,8 Jan 2024 17:46:22.469,1665.733
383,8 Jan 2024 19:24:12.875,8 Jan 2024 19:42:57.572,1124.697
384,9 Jan 2024 08:04:45.977,9 Jan 2024 08:07:51.836,185.859
385,9 Jan 2024 09:54:58.688,9 Jan 2024 10:19:59.367,1500.678
386,9 Jan 2024 11:53:11.259,9 Jan 2024 12:24:01.474,1850.216
387,9 Jan 2024 13:53:45.505,9 Jan 2024 14:26:09.715,1944.210
388,9 Jan 2024 15:55:58.807,9 Jan 2024 16:26:43.959,1845.152
389,9 Jan 2024 17:59:53.564,9 Jan 2024 18:25:11.398,1517.835
390,9 Jan 2024 20:08:45.678,9 Jan 2024 20:18:31.207,585.529
391,10 Jan 2024 08:37:31.932,10 Jan 2024 08:55:13.910,1061.978
392,10 Jan 2024 10:33:31.407,10 Jan 2024 11:01:23.280,1671.872
393,10 Jan 2024 12:32:49.389,10 Jan 2024 13:04:35.409,1906.021
394,10 Jan 2024 14:34:00.497,10 Jan 2024 15:06:13.588,1933.092
395,10 Jan 2024 16:36:44.063,10 Jan 2024 17:06:04.525,1760.462
396,10 Jan 2024 18:41:51.087,10 Jan 2024 19:03:06.691,1275.604
397,11 Jan 2024 09:14:50.241,11 Jan 2024 09:37:45.119,1374.879
398,11 Jan 2024 11:12:36.717,11 Jan 2024 11:42:15.120,1778.403
399,11 Jan 2024 13:12:41.759,11 Jan 2024 13:44:53.904,1932.145
400,11 Jan 2024 15:14:22.885,11 Jan 2024 15:45:57.373,1894.488
401,11 Jan 2024 17:17:46.959,11 Jan 2024 17:44:50.184,1623.225
402,11 Jan 2024 19:25:38.939,11 Jan 2024 19:39:08.697,809.758
403,12 Jan 2024 07:57:47.073,12 Jan 2024 08:12:26.762,879.690
404,12 Jan 2024 09:53:11.048,12 Jan 2024 10:19:08.053,1557.004
405,12 Jan 2024 11:52:03.052,12 Jan 2024 12:22:47.504,1844.452
406,12 Jan 2024 13:52:43.505,12 Jan 2024 14:24:56.056,1932.551
407,12 Jan 2024 15:54:54.511,12 Jan 2024 16:25:14.928,1820.417
408,12 Jan 2024 17:59:28.195,12 Jan 2024 18:22:44.373,1396.178
409,13 Jan 2024 08:34:43.939,13 Jan 2024 08:55:05.556,1221.617
410,13 Jan 2024 10:32:05.275,13 Jan 2024 10:59:57.963,1672.688
411,13 Jan 2024 12:31:43.153,13 Jan 2024 13:03:04.546,1881.393
412,13 Jan 2024 14:32:52.558,13 Jan 2024 15:04:37.725,1905.167
413,13 Jan 2024 16:35:43.497,13 Jan 2024 17:03:57.481,1693.985
414,13 Jan 2024 18:42:45.415,13 Jan 2024 18:58:59.220,973.804
415,14 Jan 2024 07:18:12.776,14 Jan 2024 07:29:12.502,659.726
416,14 Jan 2024 09:12:52.158,14 Jan 2024 09:36:27.438,1415.280
417,14 Jan 2024 11:11:20.433,14 Jan 2024 11:40:28.361,1747.928
418,14 Jan 2024 13:11:32.315,14 Jan 2024 13:43:05.140,1892.825
419,14 Jan 2024 15:13:10.884,14 Jan 2024 15:43:52.648,1841.764
420,14 Jan 2024 17:17:09.213,14 Jan 2024 17:41:49.627,1480.414
421,15 Jan 2024 07:54:38.727,15 Jan 2024 08:12:06.900,1048.173
422,15 Jan 2024 09:51:35.558,15 Jan 2024 10:17:14.618,1539.061
423,15 Jan 2024 11:50:49.028,15 Jan 2024 12:20:43.529,1794.500
424,15 Jan 2024 13:51:28.698,15 Jan 2024 14:22:44.870,1876.172
425,15 Jan 2024 15:53:46.419,15 Jan 2024 16:22:32.146,1725.727
426,15 Jan 2024 18:00:02.615,15 Jan 2024 18:18:09.829,1087.214
427,16 Jan 2024 06:39:06.080,16 Jan 2024 06:45:19.326,373.246
428,16 Jan 2024 08:32:33.162,16 Jan 2024 08:53:27.769,1254.606
429,16 Jan 2024 10:30:40.165,16 Jan 2024 10:57:42.022,1621.857
430,16 Jan 2024 12:30:26.445,16 Jan 2024 13:00:42.217,1815.772
431,16 Jan 2024 14:31:34.416,16 Jan 2024 15:01:57.249,1822.833
432,16 Jan 2024 16:34:57.698,16 Jan 2024 17:00:21.425,1523.727
433,17 Jan 2024 07:14:33.781,17 Jan 2024 07:28:55.193,861.411
434,17 Jan 2024 09:11:05.855,17 Jan 2024 09:34:11.119,1385.264
435,17 Jan 2024 11:09:58.084,17 Jan 2024 11:37:54.306,1676.223
436,17 Jan 2024 13:10:11.032,17 Jan 2024 13:40:19.730,1808.697
437,17 Jan 2024 15:11:57.362,17 Jan 2024 15:40:33.525,1716.163
438,17 Jan 2024 17:17:31.970,17 Jan 2024 17:36:42.196,1150.225
439,18 Jan 2024 07:52:12.271,18 Jan 2024 08:10:15.962,1083.691
440,18 Jan 2024 09:50:00.514,18 Jan 2024 10:14:34.100,1473.586
441,18 Jan 2024 11:49:24.689,18 Jan 2024 12:17:50.175,1705.486
442,18 Jan 2024 13:50:05.107,18 Jan 2024 14:19:29.285,1764.178
443,18 Jan 2024 15:52:55.667,18 Jan 2024 16:18:19.039,1523.372
444,19 Jan 2024 06:34:28.951,19 Jan 2024 06:45:34.875,665.924
445,19 Jan 2024 08:30:34.194,19 Jan 2024 08:50:54.419,1220.225
446,19 Jan 2024 10:29:08.610,19 Jan 2024 10:54:42.002,1533.392
447,19 Jan 2024 12:28:58.510,19 Jan 2024 12:57:24.684,1706.173
448,19 Jan 2024 14:30:16.669,19 Jan 2024 14:58:01.860,1665.191
449,19 Jan 2024 16:35:15.094,19 Jan 2024 16:54:36.490,1161.395
450,20 Jan 2024 07:11:47.482,20 Jan 2024 07:26:58.573,911.092
451,20 Jan 2024 09:09:19.486,20 Jan 2024 09:31:11.367,1311.881
452,20 Jan 2024 11:08:25.407,20 Jan 2024 11:34:33.629,1568.221
453,20 Jan 2024 13:08:42.114,20 Jan 2024 13:36:30.673,1668.559
454,20 Jan 2024 15:11:03.897,20 Jan 2024 15:35:42.424,1478.527
455,21 Jan 2024 05:54:26.320,21 Jan 2024 06:02:06.390,460.069
456,21 Jan 2024 07:49:58.334,21 Jan 2024 08:07:31.502,1053.167
457,21 Jan 2024 09:48:18.618,21 Jan 2024 10:11:13.091,1374.473
458,21 Jan 2024 11:47:49.600,21 Jan 2024 12:14:03.820,1574.220
459,21 Jan 2024 13:48:43.774,21 Jan 2024 14:14:58.631,1574.856
460,21 Jan 2024 15:53:13.213,21 Jan 2024 16:11:52.516,1119.303
461,22 Jan 2024 06:31:16.380,22 Jan 2024 06:43:41.021,744.641
462,22 Jan 2024 08:28:34.786,22 Jan 2024 08:47:40.949,1146.163
463,22 Jan 2024 10:27:26.648,22 Jan 2024 10:50:58.664,1412.016
464,22 Jan 2024 12:27:24.049,22 Jan 2024 12:53:04.981,1540.932
465,22 Jan 2024 14:29:22.279,22 Jan 2024 14:52:32.582,1390.303
466,23 Jan 2024 05:14:40.641,23 Jan 2024 05:18:15.135,214.494
467,23 Jan 2024 07:09:15.548,23 Jan 2024 07:24:08.556,893.008
468,23 Jan 2024 09:07:25.833,23 Jan 2024 09:27:34.692,1208.860
469,23 Jan 2024 11:06:42.400,23 Jan 2024 11:30:22.787,1420.386
470,23 Jan 2024 13:07:17.552,23 Jan 2024 13:31:26.864,1449.312
471,23 Jan 2024 15:11:27.510,23 Jan 2024 15:28:30.076,1022.566
472,24 Jan 2024 05:50:35.621,24 Jan 2024 06:00:27.437,591.816
473,24 Jan 2024 07:47:43.701,24 Jan 2024 08:04:09.410,985.710
474,24 Jan 2024 09:46:26.166,24 Jan 2024 10:07:12.262,1246.096
475,24 Jan 2024 11:46:09.160,24 Jan 2024 12:09:17.375,1388.214
476,24 Jan 2024 13:47:50.295,24 Jan 2024 14:08:51.754,1261.458
477,25 Jan 2024 06:28:22.273,25 Jan 2024 06:40:50.515,748.242
478,25 Jan 2024 08:26:27.596,25 Jan 2024 08:43:53.623,1046.027
479,25 Jan 2024 10:25:34.782,25 Jan 2024 10:46:28.321,1253.539
480,25 Jan 2024 12:25:56.573,25 Jan 2024 12:47:31.126,1294.553
481,25 Jan 2024 14:30:00.468,25 Jan 2024 14:44:28.345,867.877
482,26 Jan 2024 05:09:39.744,26 Jan 2024 05:17:21.686,461.942
483,26 Jan 2024 07:06:42.818,26 Jan 2024 07:20:42.151,839.334
484,26 Jan 2024 09:05:21.424,26 Jan 2024 09:23:21.378,1079.954
485,26 Jan 2024 11:04:55.510,26 Jan 2024 11:25:14.212,1218.702
486,26 Jan 2024 13:06:27.525,26 Jan 2024 13:24:43.280,1095.756
487,27 Jan 2024 05:47:13.530,27 Jan 2024 05:57:41.425,627.895
488,27 Jan 2024 07:45:20.703,27 Jan 2024 08:00:15.675,894.971
489,27 Jan 2024 09:44:24.352,27 Jan 2024 10:02:27.366,1083.014
490,27 Jan 2024 11:44:39.408,27 Jan 2024 12:03:17.084,1117.677
491,27 Jan 2024 13:49:00.177,27 Jan 2024 13:59:42.049,641.872
492,28 Jan 2024 04:28:18.847,28 Jan 2024 04:34:30.053,371.206
493,28 Jan 2024 06:25:27.670,28 Jan 2024 06:37:23.389,715.720
494,28 Jan 2024 08:24:09.414,28 Jan 2024 08:39:32.143,922.729
495,28 Jan 2024 10:23:41.039,28 Jan 2024 10:41:02.204,1041.164
496,28 Jan 2024 12:25:14.592,28 Jan 2024 12:40:10.668,896.076
497,29 Jan 2024 05:05:42.221,29 Jan 2024 05:14:45.327,543.106
498,29 Jan 2024 07:04:01.040,29 Jan 2024 07:16:45.389,764.350
499,29 Jan 2024 09:03:08.395,29 Jan 2024 09:18:26.217,917.822
500,29 Jan 2024 11:03:24.939,29 Jan 2024 11:18:50.585,925.647
501,29 Jan 2024 13:09:16.829,29 Jan 2024 13:13:25.087,248.258
502,30 Jan 2024 03:46:17.981,30 Jan 2024 03:52:02.482,344.501
503,30 Jan 2024 05:43:52.223,30 Jan 2024 05:54:16.683,624.460
504,30 Jan 2024 07:42:46.360,30 Jan 2024 07:55:49.418,783.058
505,30 Jan 2024 09:42:23.575,30 Jan 2024 09:56:47.444,863.869
506,30 Jan 2024 11:44:15.590,30 Jan 2024 11:55:14.602,659.012
507,31 Jan 2024 04:23:39.650,31 Jan 2024 04:32:06.276,506.626
508,31 Jan 2024 06:22:23.143,31 Jan 2024 06:33:26.408,663.265
509,31 Jan 2024 08:21:43.512,31 Jan 2024 08:34:29.957,766.445
510,31 Jan 2024 10:22:12.860,31 Jan 2024 10:34:16.113,723.253
511,1 Feb 2024 03:03:28.513,1 Feb 2024 03:10:01.867,393.354
512,1 Feb 2024 05:01:49.104,1 Feb 2024 05:11:25.193,576.088
513,1 Feb 2024 07:01:07.167,1 Feb 2024 07:12:17.100,669.933
514,1 Feb 2024 09:01:00.560,1 Feb 2024 09:12:34.675,694.115
515,1 Feb 2024 11:03:52.128,1 Feb 2024 11:09:37.852,345.724
516,2 Feb 2024 01:43:56.753,2 Feb 2024 01:47:16.903,200.150
517,2 Feb 2024 03:40:59.099,2 Feb 2024 03:49:45.406,526.307
518,2 Feb 2024 05:40:20.088,2 Feb 2024 05:50:21.864,601.775
519,2 Feb 2024 07:40:05.009,2 Feb 2024 07:50:42.666,637.657
520,2 Feb 2024 09:41:05.132,2 Feb 2024 09:49:34.297,509.166
521,3 Feb 2024 02:19:57.118,3 Feb 2024 02:28:15.786,498.668
522,3 Feb 2024 04:19:11.665,3 Feb 2024 04:28:50.160,578.495
523,3 Feb 2024 06:19:05.029,3 Feb 2024 06:28:58.678,593.649
524,3 Feb 2024 08:19:28.477,3 Feb 2024 08:28:27.324,538.847
525,4 Feb 2024 00:59:01.052,4 Feb 2024 01:06:31.520,450.469
526,4 Feb 2024 02:57:39.738,4 Feb 2024 03:07:37.736,597.998
527,4 Feb 2024 04:57:44.869,4 Feb 2024 05:07:33.581,588.712
528,4 Feb 2024 06:58:05.989,4 Feb 2024 07:07:08.380,542.391
529,4 Feb 2024 09:00:15.365,4 Feb 2024 09:04:31.867,256.502
530,4 Feb 2024 23:39:09.375,4 Feb 2024 23:43:28.250,258.874
531,5 Feb 2024 01:35:52.691,5 Feb 2024 01:46:30.304,637.612
532,5 Feb 2024 03:35:57.055,5 Feb 2024 03:46:28.542,631.487
533,5 Feb 2024 05:36:32.201,5 Feb 2024 05:45:56.940,564.740
534,5 Feb 2024 07:37:41.178,5 Feb 2024 07:44:29.097,407.919
535,6 Feb 2024 00:14:08.023,6 Feb 2024 00:25:06.343,658.321
536,6 Feb 2024 02:13:44.868,6 Feb 2024 02:25:34.605,709.737
537,6 Feb 2024 04:14:33.272,6 Feb 2024 04:24:59.842,626.571
538,6 Feb 2024 06:15:37.227,6 Feb 2024 06:23:51.632,494.405
539,6 Feb 2024 22:52:57.554,6 Feb 2024 23:02:51.538,593.984
540,7 Feb 2024 00:51:19.942,7 Feb 2024 01:04:37.023,797.082
541,7 Feb 2024 02:52:06.441,7 Feb 2024 03:04:13.523,727.082
542,7 Feb 2024 04:53:23.013,7 Feb 2024 05:03:11.659,588.646
543,7 Feb 2024 06:55:26.209,7 Feb 2024 07:00:47.992,321.783
544,7 Feb 2024 21:34:43.694,7 Feb 2024 21:37:20.219,156.525
545,7 Feb 2024 23:29:00.341,7 Feb 2024 23:43:17.531,857.190
546,8 Feb 2024 01:29:18.234,8 Feb 2024 01:43:28.114,849.880
547,8 Feb 2024 03:30:45.196,8 Feb 2024 03:42:34.839,709.643
548,8 Feb 2024 05:32:30.435,8 Feb 2024 05:40:54.841,504.406
549,8 Feb 2024 22:07:13.900,8 Feb 2024 22:21:09.203,835.303
550,9 Feb 2024 00:06:22.053,9 Feb 2024 00:22:31.064,969.011
551,9 Feb 2024 02:07:42.641,9 Feb 2024 02:21:57.636,854.994
552,9 Feb 2024 04:09:36.350,9 Feb 2024 04:20:37.813,661.462
553,9 Feb 2024 06:12:24.454,9 Feb 2024 06:17:37.328,312.874
554,9 Feb 2024 20:47:04.709,9 Feb 2024 20:57:06.377,601.668
555,9 Feb 2024 22:43:37.352,9 Feb 2024 23:01:06.829,1049.477
556,10 Feb 2024 00:44:23.389,10 Feb 2024 01:01:12.419,1009.031
557,10 Feb 2024 02:46:22.926,10 Feb 2024 03:00:11.175,828.249
558,10 Feb 2024 04:48:43.419,10 Feb 2024 04:58:13.922,570.503
559,10 Feb 2024 21:21:31.373,10 Feb 2024 21:38:51.632,1040.259
560,10 Feb 2024 23:21:03.042,10 Feb 2024 23:40:09.003,1145.961
561,11 Feb 2024 01:22:48.911,11 Feb 2024 01:39:34.726,1005.815
562,11 Feb 2024 03:25:14.426,11 Feb 2024 03:38:07.659,773.233
563,11 Feb 2024 05:28:29.869,11 Feb 2024 05:34:56.722,386.853
564,11 Feb 2024 20:00:55.641,11 Feb 2024 20:14:52.445,836.805
565,11 Feb 2024 21:58:02.866,11 Feb 2024 22:18:33.467,1230.601
566,11 Feb 2024 23:59:04.666,12 Feb 2024 00:18:43.199,1178.533
567,12 Feb 2024 02:01:29.503,12 Feb 2024 02:17:42.285,972.782
568,12 Feb 2024 04:04:19.429,12 Feb 2024 04:15:39.717,680.289
569,12 Feb 2024 20:35:49.765,12 Feb 2024 20:56:03.292,1213.527
570,12 Feb 2024 22:35:28.501,12 Feb 2024 22:57:27.939,1319.439
571,13 Feb 2024 00:37:29.374,13 Feb 2024 00:57:00.018,1170.644
572,13 Feb 2024 02:40:20.393,13 Feb 2024 02:55:33.926,913.533
573,13 Feb 2024 04:43:54.628,13 Feb 2024 04:52:27.764,513.137
574,13 Feb 2024 19:15:09.975,13 Feb 2024 19:31:48.986,999.011
575,13 Feb 2024 21:12:22.737,13 Feb 2024 21:35:35.795,1393.057
576,13 Feb 2024 23:13:27.815,13 Feb 2024 23:35:56.961,1349.147
577,14 Feb 2024 01:16:08.758,14 Feb 2024 01:35:02.984,1134.226
578,14 Feb 2024 03:19:22.666,14 Feb 2024 03:33:03.365,820.699
579,14 Feb 2024 19:50:13.009,14 Feb 2024 20:12:44.395,1351.386
580,14 Feb 2024 21:49:45.182,14 Feb 2024 22:14:25.203,1480.021
581,14 Feb 2024 23:51:49.578,15 Feb 2024 00:14:09.709,1340.131
582,15 Feb 2024 01:54:57.915,15 Feb 2024 02:12:50.928,1073.012
583,15 Feb 2024 03:58:48.038,15 Feb 2024 04:09:55.999,667.961
584,15 Feb 2024 18:29:42.530,15 Feb 2024 18:48:04.124,1101.594
585,15 Feb 2024 20:26:43.242,15 Feb 2024 20:52:11.769,1528.527
586,15 Feb 2024 22:27:39.772,15 Feb 2024 22:52:50.674,1510.902
587,16 Feb 2024 00:30:25.894,16 Feb 2024 00:52:09.223,1303.329
588,16 Feb 2024 02:33:56.912,16 Feb 2024 02:50:18.398,981.486
589,16 Feb 2024 04:39:29.089,16 Feb 2024 04:45:19.672,350.584
590,16 Feb 2024 19:04:45.293,16 Feb 2024 19:28:53.818,1448.525
591,16 Feb 2024 21:04:00.028,16 Feb 2024 21:30:58.197,1618.169
592,16 Feb 2024 23:05:56.364,16 Feb 2024 23:31:00.555,1504.192
593,17 Feb 2024 01:09:11.780,17 Feb 2024 01:29:54.338,1242.558
594,17 Feb 2024 03:13:14.204,17 Feb 2024 03:27:14.006,839.803
595,17 Feb 2024 17:44:33.423,17 Feb 2024 18:03:39.289,1145.866
596,17 Feb 2024 19:41:09.822,17 Feb 2024 20:08:19.209,1629.387
597,17 Feb 2024 21:41:47.792,17 Feb 2024 22:09:21.490,1653.698
598,17 Feb 2024 23:44:27.509,18 Feb 2024 00:08:57.600,1470.090
599,18 Feb 2024 01:48:06.543,18 Feb 2024 02:07:20.213,1153.671
600,18 Feb 2024 03:53:19.655,18 Feb 2024 04:03:08.429,588.774
601,18 Feb 2024 18:19:29.788,18 Feb 2024 18:44:30.038,1500.250
602,18 Feb 2024 20:18:19.085,18 Feb 2024 20:47:04.393,1725.307
603,18 Feb 2024 22:19:57.131,18 Feb 2024 22:47:29.586,1652.455
604,19 Feb 2024 00:23:08.229,19 Feb 2024 00:46:40.631,1412.403
605,19 Feb 2024 02:27:16.452,19 Feb 2024 02:44:17.533,1021.081
606,19 Feb 2024 16:59:43.558,19 Feb 2024 17:18:34.011,1130.452
607,19 Feb 2024 18:55:46.412,19 Feb 2024 19:23:56.028,1689.616
608,19 Feb 2024 20:55:58.369,19 Feb 2024 21:25:26.721,1768.352
609,19 Feb 2024 22:58:21.010,19 Feb 2024 23:25:25.036,1624.026
610,20 Feb 2024 01:01:57.278,20 Feb 2024 01:24:05.244,1327.966
611,20 Feb 2024 03:07:01.980,20 Feb 2024 03:20:26.368,804.388
612,20 Feb 2024 17:34:28.247,20 Feb 2024 17:59:31.694,1503.446
613,20 Feb 2024 19:32:46.801,20 Feb 2024 20:02:41.425,1794.624
614,20 Feb 2024 21:33:58.764,20 Feb 2024 22:03:33.975,1775.211
615,20 Feb 2024 23:36:54.527,21 Feb 2024 00:03:06.675,1572.148
616,21 Feb 2024 01:40:59.434,21 Feb 2024 02:01:03.466,1204.031
617,21 Feb 2024 03:49:00.925,21 Feb 2024 03:54:13.572,312.646
618,21 Feb 2024 16:15:14.097,21 Feb 2024 16:32:47.198,1053.101
619,21 Feb 2024 18:10:35.187,21 Feb 2024 18:39:00.481,1705.294
620,21 Feb 2024 20:10:16.456,21 Feb 2024 20:41:03.815,1847.359
621,21 Feb 2024 22:12:13.582,21 Feb 2024 22:41:28.642,1755.059
622,22 Feb 2024 00:15:36.098,22 Feb 2024 00:40:30.364,1494.266
623,22 Feb 2024 02:20:30.190,22 Feb 2024 02:37:20.254,1010.064
624,22 Feb 2024 16:49:41.186,22 Feb 2024 17:13:58.066,1456.880
625,22 Feb 2024 18:47:25.759,22 Feb 2024 19:17:47.301,1821.542
626,22 Feb 2024 20:48:06.726,22 Feb 2024 21:19:11.061,1864.336
627,22 Feb 2024 22:50:38.050,22 Feb 2024 23:19:09.523,1711.473
628,23 Feb 2024 00:54:29.439,23 Feb 2024 01:17:29.038,1379.598
629,23 Feb 2024 03:01:18.804,23 Feb 2024 03:12:11.084,652.279
630,23 Feb 2024 15:31:07.549,23 Feb 2024 15:46:16.929,909.380
631,23 Feb 2024 17:25:36.740,23 Feb 2024 17:53:31.606,1674.867
632,23 Feb 2024 19:24:45.105,23 Feb 2024 19:56:10.571,1885.465
633,23 Feb 2024 21:26:11.168,23 Feb 2024 21:57:05.650,1854.483
634,23 Feb 2024 23:29:10.410,23 Feb 2024 23:56:32.653,1642.243
635,24 Feb 2024 01:33:47.002,24 Feb 2024 01:53:50.523,1203.521
636,24 Feb 2024 16:05:08.269,24 Feb 2024 16:27:49.533,1361.264
637,24 Feb 2024 18:02:16.817,24 Feb 2024 18:32:20.776,1803.959
638,24 Feb 2024 20:02:24.574,24 Feb 2024 20:34:18.467,1913.893
639,24 Feb 2024 22:04:25.186,24 Feb 2024 22:34:46.356,1821.170
640,25 Feb 2024 00:07:53.611,25 Feb 2024 00:33:31.585,1537.974
641,25 Feb 2024 02:14:02.540,25 Feb 2024 02:29:05.689,903.148
642,25 Feb 2024 14:47:32.178,25 Feb 2024 14:58:56.834,684.656
643,25 Feb 2024 16:40:50.488,25 Feb 2024 17:07:29.680,1599.192
644,25 Feb 2024 18:39:25.497,25 Feb 2024 19:10:45.470,1879.973
645,25 Feb 2024 20:40:17.888,25 Feb 2024 21:12:13.545,1915.657
646,25 Feb 2024 22:42:46.932,25 Feb 2024 23:12:09.324,1762.392
647,26 Feb 2024 00:46:58.082,26 Feb 2024 01:09:55.935,1377.853
648,26 Feb 2024 15:20:48.929,26 Feb 2024 15:41:07.870,1218.941
649,26 Feb 2024 17:17:19.453,26 Feb 2024 17:46:21.788,1742.335
650,26 Feb 2024 19:16:53.926,26 Feb 2024 19:48:54.417,1920.492
651,26 Feb 2024 21:18:20.602,26 Feb 2024 21:49:54.589,1893.987
652,26 Feb 2024 23:21:18.830,26 Feb 2024 23:49:08.474,1669.644
653,27 Feb 2024 01:26:49.920,27 Feb 2024 01:45:23.986,1114.065
654,27 Feb 2024 14:05:17.586,27 Feb 2024 14:10:00.949,283.363
655,27 Feb 2024 15:56:15.103,27 Feb 2024 16:20:56.680,1481.577
656,27 Feb 2024 17:54:17.343,27 Feb 2024 18:24:48.086,1830.743
657,27 Feb 2024 19:54:35.856,27 Feb 2024 20:26:50.349,1934.493
658,27 Feb 2024 21:56:30.850,27 Feb 2024 22:27:17.744,1846.895
659,28 Feb 2024 00:00:09.872,28 Feb 2024 00:25:34.611,1524.739
660,28 Feb 2024 02:09:07.655,28 Feb 2024 02:18:26.759,559.104
661,28 Feb 2024 14:36:43.217,28 Feb 2024 14:53:55.838,1032.620
662,28 Feb 2024 16:32:32.231,28 Feb 2024 16:59:51.980,1639.749
663,28 Feb 2024 18:31:34.783,28 Feb 2024 19:02:58.133,1883.350
664,28 Feb 2024 20:32:26.945,28 Feb 2024 21:04:32.061,1925.115
665,28 Feb 2024 22:34:50.685,28 Feb 2024 23:04:17.169,1766.483
666,29 Feb 2024 00:39:41.609,29 Feb 2024 01:01:10.206,1288.597
667,29 Feb 2024 15:11:48.914,29 Feb 2024 15:33:56.464,1327.550
668,29 Feb 2024 17:09:19.266,29 Feb 2024 17:38:19.620,1740.354
669,29 Feb 2024 19:09:05.437,29 Feb 2024 19:40:54.971,1909.534
670,29 Feb 2024 21:10:25.345,29 Feb 2024 21:41:55.666,1890.321
671,29 Feb 2024 23:13:28.052,29 Feb 2024 23:40:44.437,1636.384
672,1 Mar 2024 01:20:57.799,1 Mar 2024 01:35:00.549,842.750
673,1 Mar 2024 13:52:53.671,1 Mar 2024 14:06:15.240,801.569
674,1 Mar 2024 15:47:53.127,1 Mar 2024 16:12:54.990,1501.863
675,1 Mar 2024 17:46:25.937,1 Mar 2024 18:16:30.360,1804.424
676,1 Mar 2024 19:46:45.011,1 Mar 2024 20:18:37.415,1912.404
677,1 Mar 2024 21:48:32.846,1 Mar 2024 22:18:55.419,1822.573
678,1 Mar 2024 23:52:41.504,2 Mar 2024 00:16:24.559,1423.055
679,2 Mar 2024 14:27:30.300,2 Mar 2024 14:46:34.413,1144.113
680,2 Mar 2024 16:24:29.175,2 Mar 2024 16:51:23.261,1614.086
681,2 Mar 2024 18:23:45.650,2 Mar 2024 18:54:27.683,1842.034
682,2 Mar 2024 20:24:31.648,2 Mar 2024 20:56:01.527,1889.880
683,2 Mar 2024 22:26:56.614,2 Mar 2024 22:55:23.350,1706.736
684,3 Mar 2024 00:33:19.781,3 Mar 2024 00:50:37.202,1037.421
685,3 Mar 2024 13:09:33.120,3 Mar 2024 13:17:58.269,505.148
686,3 Mar 2024 15:03:19.834,3 Mar 2024 15:25:36.385,1336.551
687,3 Mar 2024 17:01:25.332,3 Mar 2024 17:29:33.751,1688.419
688,3 Mar 2024 19:01:14.075,3 Mar 2024 19:32:10.529,1856.454
689,3 Mar 2024 21:02:26.987,3 Mar 2024 21:33:01.529,1834.542
690,3 Mar 2024 23:05:53.138,3 Mar 2024 23:31:06.066,1512.928
691,4 Mar 2024 13:43:18.163,4 Mar 2024 13:58:56.321,938.158
692,4 Mar 2024 15:39:44.552,4 Mar 2024 16:04:04.264,1459.712
693,4 Mar 2024 17:38:34.556,4 Mar 2024 18:07:30.616,1736.060
694,4 Mar 2024 19:38:49.366,4 Mar 2024 20:09:34.858,1845.492
695,4 Mar 2024 21:40:37.608,4 Mar 2024 22:09:29.691,1732.083
696,4 Mar 2024 23:46:02.949,5 Mar 2024 00:05:30.706,1167.757
697,5 Mar 2024 14:18:49.913,5 Mar 2024 14:38:02.982,1153.069
698,5 Mar 2024 16:16:30.414,5 Mar 2024 16:42:13.085,1542.670
699,5 Mar 2024 18:15:52.379,5 Mar 2024 18:45:12.993,1760.614
700,5 Mar 2024 20:16:33.029,5 Mar 2024 20:46:34.794,1801.765
701,5 Mar 2024 22:19:18.572,5 Mar 2024 22:45:13.551,1554.979
702,6 Mar 2024 00:32:41.266,6 Mar 2024 00:33:36.058,54.793
703,6 Mar 2024 12:59:12.990,6 Mar 2024 13:11:06.137,713.148
704,6 Mar 2024 14:55:02.621,6 Mar 2024 15:16:29.457,1286.836
705,6 Mar 2024 16:53:29.619,6 Mar 2024 17:20:07.993,1598.375
706,6 Mar 2024 18:53:16.923,6 Mar 2024 19:22:36.799,1759.876
707,6 Mar 2024 20:54:31.274,6 Mar 2024 21:23:02.618,1711.344
708,6 Mar 2024 22:59:05.538,6 Mar 2024 23:19:44.370,1238.832
709,7 Mar 2024 13:34:20.905,7 Mar 2024 13:50:21.694,960.788
710,7 Mar 2024 15:31:38.284,7 Mar 2024 15:54:34.943,1376.659
711,7 Mar 2024 17:30:37.438,7 Mar 2024 17:57:48.480,1631.041
712,7 Mar 2024 19:30:49.625,7 Mar 2024 19:59:35.954,1726.329
713,7 Mar 2024 21:32:58.203,7 Mar 2024 21:58:46.326,1548.123
714,7 Mar 2024 23:42:42.844,7 Mar 2024 23:50:30.521,467.678
715,8 Mar 2024 12:15:21.006,8 Mar 2024 12:23:00.495,459.489
716,8 Mar 2024 14:10:20.385,8 Mar 2024 14:28:46.300,1105.915
717,8 Mar 2024 16:08:27.916,8 Mar 2024 16:32:26.008,1438.092
718,8 Mar 2024 18:07:51.950,8 Mar 2024 18:35:10.473,1638.523
719,8 Mar 2024 20:08:36.486,8 Mar 2024 20:36:02.612,1646.126
720,8 Mar 2024 22:12:26.671,8 Mar 2024 22:33:19.208,1252.537
721,9 Mar 2024 12:49:50.433,9 Mar 2024 13:02:38.146,767.713
722,9 Mar 2024 14:46:45.801,9 Mar 2024 15:06:46.881,1201.080
723,9 Mar 2024 16:45:26.388,9 Mar 2024 17:10:02.706,1476.317
724,9 Mar 2024 18:45:14.554,9 Mar 2024 19:12:07.677,1613.123
725,9 Mar 2024 20:46:51.070,9 Mar 2024 21:11:44.747,1493.678
726,9 Mar 2024 22:55:12.461,9 Mar 2024 23:04:36.984,564.524
727,10 Mar 2024 13:25:34.560,10 Mar 2024 13:41:01.661,927.101
728,10 Mar 2024 15:23:26.286,10 Mar 2024 15:44:32.093,1265.808
729,10 Mar 2024 17:22:31.658,10 Mar 2024 17:47:21.094,1489.435
730,10 Mar 2024 19:22:51.200,10 Mar 2024 19:48:31.913,1540.714
731,10 Mar 2024 21:26:05.115,10 Mar 2024 21:46:16.091,1210.976
732,11 Mar 2024 12:05:16.238,11 Mar 2024 12:14:55.547,579.309
733,11 Mar 2024 14:01:49.497,11 Mar 2024 14:18:56.218,1026.721
734,11 Mar 2024 16:00:16.077,11 Mar 2024 16:22:02.856,1306.779
735,11 Mar 2024 17:59:45.124,11 Mar 2024 18:24:14.651,1469.528
736,11 Mar 2024 20:00:55.374,11 Mar 2024 20:24:10.718,1395.344
737,11 Mar 2024 22:08:30.513,11 Mar 2024 22:17:35.026,544.513
738,12 Mar 2024 12:40:41.263,12 Mar 2024 12:53:20.900,759.638
739,12 Mar 2024 14:38:21.230,12 Mar 2024 14:56:33.803,1092.573
740,12 Mar 2024 16:37:12.924,12 Mar 2024 16:59:15.484,1322.560
741,12 Mar 2024 18:37:12.859,12 Mar 2024 19:00:34.715,1401.856
742,12 Mar 2024 20:39:59.332,12 Mar 2024 20:58:36.576,1117.244
743,13 Mar 2024 11:20:36.038,13 Mar 2024 11:27:14.195,398.157
744,13 Mar 2024 13:16:45.275,13 Mar 2024 13:31:09.039,863.764
745,13 Mar 2024 15:15:02.996,13 Mar 2024 15:33:56.532,1133.536
746,13 Mar 2024 17:14:18.290,13 Mar 2024 17:36:03.278,1304.988
747,13 Mar 2024 19:15:08.811,13 Mar 2024 19:36:07.851,1259.040
748,13 Mar 2024 21:22:36.952,13 Mar 2024 21:29:24.781,407.829
749,14 Mar 2024 11:55:35.184,14 Mar 2024 12:05:47.947,612.763
750,14 Mar 2024 13:53:08.627,14 Mar 2024 14:08:37.670,929.043
751,14 Mar 2024 15:51:52.285,14 Mar 2024 16:11:01.159,1148.874
752,14 Mar 2024 17:51:38.577,14 Mar 2024 18:12:16.923,1238.347
753,14 Mar 2024 19:54:08.045,14 Mar 2024 20:10:23.053,975.008
754,15 Mar 2024 10:35:47.384,15 Mar 2024 10:39:31.827,224.443
755,15 Mar 2024 12:31:27.808,15 Mar 2024 12:43:29.884,722.076
756,15 Mar 2024 14:29:43.096,15 Mar 2024 14:45:50.611,967.515
757,15 Mar 2024 16:28:50.664,15 Mar 2024 16:47:40.862,1130.197
758,15 Mar 2024 18:29:28.945,15 Mar 2024 18:47:41.296,1092.351
759,16 Mar 2024 11:10:08.210,16 Mar 2024 11:18:26.675,498.465
760,16 Mar 2024 13:07:43.322,16 Mar 2024 13:20:48.706,785.384
761,16 Mar 2024 15:06:25.779,16 Mar 2024 15:22:45.200,979.421
762,16 Mar 2024 17:06:05.214,16 Mar 2024 17:23:45.420,1060.205
763,16 Mar 2024 19:08:31.480,16 Mar 2024 19:21:37.766,786.285
764,17 Mar 2024 09:50:45.248,17 Mar 2024 09:51:46.566,61.318
765,17 Mar 2024 11:45:49.817,17 Mar 2024 11:56:02.363,612.546
766,17 Mar 2024 13:44:11.398,17 Mar 2024 13:57:50.503,819.105
767,17 Mar 2024 15:43:18.475,17 Mar 2024 15:59:14.473,955.998
768,17 Mar 2024 17:43:53.591,17 Mar 2024 17:58:56.841,903.250
769,18 Mar 2024 10:24:08.168,18 Mar 2024 10:31:22.729,434.561
770,18 Mar 2024 12:21:58.536,18 Mar 2024 12:33:10.593,672.057
771,18 Mar 2024 14:20:48.613,18 Mar 2024 14:34:33.339,824.726
772,18 Mar 2024 16:20:29.449,18 Mar 2024 16:35:06.912,877.463
773,18 Mar 2024 18:23:15.771,18 Mar 2024 18:32:18.026,542.256
774,19 Mar 2024 09:03:38.966,19 Mar 2024 09:05:40.951,121.986
775,19 Mar 2024 10:59:41.675,19 Mar 2024 11:08:49.923,548.249
776,19 Mar 2024 12:58:21.430,19 Mar 2024 13:10:00.174,698.745
777,19 Mar 2024 14:57:37.200,19 Mar 2024 15:10:49.984,792.784
778,19 Mar 2024 16:58:21.449,19 Mar 2024 17:09:59.157,697.708
779,20 Mar 2024 09:37:22.296,20 Mar 2024 09:44:40.847,438.552
780,20 Mar 2024 11:35:45.520,20 Mar 2024 11:45:46.320,600.800
781,20 Mar 2024 13:34:54.569,20 Mar 2024 13:46:29.861,695.292
782,20 Mar 2024 15:34:47.522,20 Mar 2024 15:46:26.792,699.269
783,20 Mar 2024 17:39:31.712,20 Mar 2024 17:41:16.383,104.671
784,21 Mar 2024 08:15:21.928,21 Mar 2024 08:20:13.065,291.137
785,21 Mar 2024 10:12:53.522,21 Mar 2024 10:21:54.525,541.004
786,21 Mar 2024 12:12:04.787,21 Mar 2024 12:22:22.719,617.932
787,21 Mar 2024 14:11:40.876,21 Mar 2024 14:22:31.883,651.007
788,21 Mar 2024 16:12:54.215,21 Mar 2024 16:20:48.349,474.134
789,22 Mar 2024 08:49:46.836,22 Mar 2024 08:58:16.117,509.281
790,22 Mar 2024 10:48:54.917,22 Mar 2024 10:58:37.485,582.569
791,22 Mar 2024 12:48:35.260,22 Mar 2024 12:58:38.260,603.000
792,22 Mar 2024 14:48:54.558,22 Mar 2024 14:57:48.814,534.257
793,23 Mar 2024 07:26:40.740,23 Mar 2024 07:34:28.299,467.560
794,23 Mar 2024 09:25:20.042,23 Mar 2024 09:35:12.679,592.637
795,23 Mar 2024 11:25:11.939,23 Mar 2024 11:35:00.089,588.149
796,23 Mar 2024 13:25:20.920,23 Mar 2024 13:34:24.261,543.341
797,23 Mar 2024 15:27:54.211,23 Mar 2024 15:31:01.223,187.012
798,24 Mar 2024 06:04:22.269,24 Mar 2024 06:09:37.440,315.171
799,24 Mar 2024 08:01:26.837,24 Mar 2024 08:11:55.173,628.337
800,24 Mar 2024 10:01:20.410,24 Mar 2024 10:11:41.501,621.090
801,24 Mar 2024 12:01:40.499,24 Mar 2024 12:11:01.404,560.906
802,24 Mar 2024 14:02:42.618,24 Mar 2024 14:09:16.753,394.135
803,25 Mar 2024 06:37:32.519,25 Mar 2024 06:48:23.016,650.497
804,25 Mar 2024 08:37:01.878,25 Mar 2024 08:48:35.098,693.220
805,25 Mar 2024 10:37:35.563,25 Mar 2024 10:47:50.719,615.156
806,25 Mar 2024 12:38:25.562,25 Mar 2024 12:46:31.846,486.284
807,26 Mar 2024 05:14:08.971,26 Mar 2024 05:24:01.212,592.242
808,26 Mar 2024 07:12:27.582,26 Mar 2024 07:25:25.791,778.209
809,26 Mar 2024 09:13:00.845,26 Mar 2024 09:24:50.618,709.773
810,26 Mar 2024 11:14:01.614,26 Mar 2024 11:23:39.133,577.520
811,26 Mar 2024 13:15:55.792,26 Mar 2024 13:20:59.769,303.977
812,27 Mar 2024 03:53:28.531,27 Mar 2024 03:56:33.710,185.179
813,27 Mar 2024 05:47:56.285,27 Mar 2024 06:01:54.053,837.768
814,27 Mar 2024 07:48:02.030,27 Mar 2024 08:01:51.388,829.358
815,27 Mar 2024 09:49:13.343,27 Mar 2024 10:00:47.787,694.444
816,27 Mar 2024 11:50:43.391,27 Mar 2024 11:58:57.348,493.957
817,28 Mar 2024 04:23:57.506,28 Mar 2024 04:37:30.875,813.369
818,28 Mar 2024 06:22:52.880,28 Mar 2024 06:38:39.574,946.694
819,28 Mar 2024 08:23:58.105,28 Mar 2024 08:37:55.126,837.021
820,28 Mar 2024 10:25:35.439,28 Mar 2024 10:36:25.389,649.950
821,28 Mar 2024 12:28:09.642,28 Mar 2024 12:33:13.765,304.122
822,29 Mar 2024 03:01:42.679,29 Mar 2024 03:11:02.790,560.111
823,29 Mar 2024 04:57:54.067,29 Mar 2024 05:14:58.135,1024.068
824,29 Mar 2024 06:58:23.853,29 Mar 2024 07:14:53.139,989.287
825,29 Mar 2024 09:00:06.663,29 Mar 2024 09:13:41.761,815.099
826,29 Mar 2024 11:02:10.548,29 Mar 2024 11:11:35.421,564.873
827,30 Mar 2024 03:33:35.450,30 Mar 2024 03:50:20.424,1004.974
828,30 Mar 2024 05:32:47.068,30 Mar 2024 05:51:30.625,1123.558
829,30 Mar 2024 07:34:15.097,30 Mar 2024 07:50:46.579,991.483
830,30 Mar 2024 09:36:23.478,30 Mar 2024 09:49:10.272,766.794
831,30 Mar 2024 11:39:19.195,30 Mar 2024 11:45:54.557,395.362
832,31 Mar 2024 02:10:58.575,31 Mar 2024 02:23:42.624,764.049
833,31 Mar 2024 04:07:30.749,31 Mar 2024 04:27:31.913,1201.164
834,31 Mar 2024 06:08:11.701,31 Mar 2024 06:27:34.026,1162.326
835,31 Mar 2024 08:10:18.236,31 Mar 2024 08:26:23.925,965.689
836,31 Mar 2024 10:12:50.209,31 Mar 2024 10:24:14.326,684.116
837,1 Apr 2024 02:43:05.232,1 Apr 2024 03:02:30.617,1165.385
838,1 Apr 2024 04:42:16.242,1 Apr 2024 05:03:54.271,1298.030
839,1 Apr 2024 06:43:55.939,1 Apr 2024 07:03:18.430,1162.491
840,1 Apr 2024 08:46:28.675,1 Apr 2024 09:01:44.426,915.751
841,1 Apr 2024 10:49:39.793,1 Apr 2024 10:58:38.168,538.375
842,2 Apr 2024 01:20:29.789,2 Apr 2024 01:35:22.765,892.976
843,2 Apr 2024 03:16:53.189,2 Apr 2024 03:39:31.936,1358.747
844,2 Apr 2024 05:17:31.796,2 Apr 2024 05:39:49.082,1337.287
845,2 Apr 2024 07:19:51.922,2 Apr 2024 07:38:47.474,1135.551
846,2 Apr 2024 09:22:46.584,2 Apr 2024 09:36:43.131,836.546
847,2 Apr 2024 11:28:11.443,2 Apr 2024 11:31:02.346,170.903
848,3 Apr 2024 01:52:32.381,3 Apr 2024 02:13:59.450,1287.069
849,3 Apr 2024 03:51:28.050,3 Apr 2024 04:15:46.466,1458.416
850,3 Apr 2024 05:53:06.698,3 Apr 2024 06:15:25.531,1338.833
851,3 Apr 2024 07:55:54.769,3 Apr 2024 08:14:00.692,1085.923
852,3 Apr 2024 09:59:20.014,3 Apr 2024 10:11:09.016,709.002
853,4 Apr 2024 00:30:14.687,4 Apr 2024 00:46:07.055,952.369
854,4 Apr 2024 02:26:08.779,4 Apr 2024 02:50:54.731,1485.951
855,4 Apr 2024 04:26:32.025,4 Apr 2024 04:51:34.050,1502.025
856,4 Apr 2024 06:28:53.494,4 Apr 2024 06:50:47.138,1313.644
857,4 Apr 2024 08:32:03.476,4 Apr 2024 08:48:54.109,1010.633
858,4 Apr 2024 10:36:39.145,4 Apr 2024 10:44:31.641,472.496
859,5 Apr 2024 01:02:02.445,5 Apr 2024 01:24:44.015,1361.570
860,5 Apr 2024 03:00:30.527,5 Apr 2024 03:27:03.439,1592.912
861,5 Apr 2024 05:01:55.287,5 Apr 2024 05:27:03.556,1508.269
862,5 Apr 2024 07:04:47.141,5 Apr 2024 07:25:53.649,1266.507
863,5 Apr 2024 09:08:23.061,5 Apr 2024 09:23:19.506,896.445
864,5 Apr 2024 23:40:16.901,5 Apr 2024 23:55:52.745,935.844
865,6 Apr 2024 01:35:24.017,6 Apr 2024 02:01:36.884,1572.867
866,6 Apr 2024 03:35:20.859,6 Apr 2024 04:02:45.083,1644.224
867,6 Apr 2024 05:37:30.729,6 Apr 2024 06:02:18.516,1487.787
868,6 Apr 2024 07:40:45.769,6 Apr 2024 08:00:41.786,1196.017
869,6 Apr 2024 09:45:10.672,6 Apr 2024 09:56:59.297,708.625
870,7 Apr 2024 00:11:39.799,7 Apr 2024 00:34:41.139,1381.340
871,7 Apr 2024 02:09:30.750,7 Apr 2024 02:37:41.661,1690.911
872,7 Apr 2024 04:10:30.435,7 Apr 2024 04:38:08.605,1658.171
873,7 Apr 2024 06:13:13.245,7 Apr 2024 06:37:18.888,1445.643
874,7 Apr 2024 08:16:52.380,7 Apr 2024 08:35:05.045,1092.665
875,7 Apr 2024 10:23:47.781,7 Apr 2024 10:28:34.776,286.995
876,7 Apr 2024 22:50:43.529,7 Apr 2024 23:04:32.633,829.104
877,8 Apr 2024 00:44:43.596,8 Apr 2024 01:11:35.225,1611.629
878,8 Apr 2024 02:44:05.863,8 Apr 2024 03:13:18.585,1752.722
879,8 Apr 2024 04:45:52.468,8 Apr 2024 05:13:17.680,1645.212
880,8 Apr 2024 06:49:00.357,8 Apr 2024 07:12:01.867,1381.510
881,8 Apr 2024 08:53:18.221,8 Apr 2024 09:08:51.433,933.212
882,8 Apr 2024 23:21:27.428,8 Apr 2024 23:43:47.798,1340.370
883,9 Apr 2024 01:18:33.825,9 Apr 2024 01:47:37.931,1744.106
884,9 Apr 2024 03:19:00.182,9 Apr 2024 03:48:37.045,1776.862
885,9 Apr 2024 05:21:21.859,9 Apr 2024 05:48:12.491,1610.632
886,9 Apr 2024 07:24:53.669,9 Apr 2024 07:46:22.051,1288.382
887,9 Apr 2024 09:30:37.138,9 Apr 2024 09:41:29.655,652.517
888,9 Apr 2024 22:01:54.168,9 Apr 2024 22:11:47.004,592.836
889,9 Apr 2024 23:54:10.218,10 Apr 2024 00:20:47.160,1596.942
890,10 Apr 2024 01:52:52.616,10 Apr 2024 02:23:11.304,1818.688
891,10 Apr 2024 03:54:07.125,10 Apr 2024 04:23:40.976,1773.851
892,10 Apr 2024 05:56:55.751,10 Apr 2024 06:22:50.573,1554.822
893,10 Apr 2024 08:01:01.074,10 Apr 2024 08:20:10.377,1149.303
894,10 Apr 2024 22:31:27.626,10 Apr 2024 22:52:01.272,1233.646
895,11 Apr 2024 00:27:42.561,11 Apr 2024 00:56:49.631,1747.070
896,11 Apr 2024 02:27:30.605,11 Apr 2024 02:58:25.495,1854.890
897,11 Apr 2024 04:29:21.644,11 Apr 2024 04:58:30.772,1749.128
898,11 Apr 2024 06:32:34.681,11 Apr 2024 06:57:07.203,1472.522
899,11 Apr 2024 08:37:43.372,11 Apr 2024 08:53:08.148,924.775
900,11 Apr 2024 23:03:44.819,11 Apr 2024 23:29:10.972,1526.153
901,12 Apr 2024 01:01:44.212,12 Apr 2024 01:32:20.414,1836.202
902,12 Apr 2024 03:02:21.254,12 Apr 2024 03:33:24.864,1863.610
903,12 Apr 2024 05:04:40.605,12 Apr 2024 05:33:04.210,1703.605
904,12 Apr 2024 07:08:24.374,12 Apr 2024 07:30:55.009,1350.635
905,12 Apr 2024 09:16:20.731,12 Apr 2024 09:24:00.970,460.239
906,12 Apr 2024 21:41:43.602,12 Apr 2024 21:59:18.359,1054.757
907,12 Apr 2024 23:36:57.628,13 Apr 2024 00:05:15.018,1697.391
908,13 Apr 2024 01:36:05.162,13 Apr 2024 02:07:30.883,1885.721
909,13 Apr 2024 03:37:19.549,13 Apr 2024 04:08:10.043,1850.494
910,13 Apr 2024 05:40:03.803,13 Apr 2024 06:07:17.016,1633.214
911,13 Apr 2024 07:44:39.486,13 Apr 2024 08:04:00.840,1161.354
912,13 Apr 2024 22:13:27.202,13 Apr 2024 22:36:46.155,1398.953
913,14 Apr 2024 00:10:41.338,14 Apr 2024 00:40:43.903,1802.565
914,14 Apr 2024 02:10:38.734,14 Apr 2024 02:42:25.995,1907.260
915,14 Apr 2024 04:12:22.170,14 Apr 2024 04:42:38.993,1816.823
916,14 Apr 2024 06:15:35.392,14 Apr 2024 06:41:02.829,1527.437
917,14 Apr 2024 08:21:59.787,14 Apr 2024 08:35:50.095,830.309
918,14 Apr 2024 20:52:24.799,14 Apr 2024 21:05:30.990,786.191
919,14 Apr 2024 22:46:18.060,14 Apr 2024 23:12:53.742,1595.682
920,15 Apr 2024 00:44:44.719,15 Apr 2024 01:15:50.825,1866.107
921,15 Apr 2024 02:45:19.882,15 Apr 2024 03:17:06.689,1906.808
922,15 Apr 2024 04:47:28.367,15 Apr 2024 05:16:47.730,1759.363
923,15 Apr 2024 06:51:26.409,15 Apr 2024 07:14:11.449,1365.040
924,15 Apr 2024 21:23:17.031,15 Apr 2024 21:43:33.456,1216.425
925,15 Apr 2024 23:19:42.771,15 Apr 2024 23:48:21.108,1718.337
926,16 Apr 2024 01:19:00.701,16 Apr 2024 01:50:41.574,1900.873
927,16 Apr 2024 03:20:05.148,16 Apr 2024 03:51:31.113,1885.965
928,16 Apr 2024 05:22:41.125,16 Apr 2024 05:50:30.525,1669.400
929,16 Apr 2024 07:28:03.065,16 Apr 2024 07:46:20.998,1097.933
930,16 Apr 2024 20:04:29.604,16 Apr 2024 20:09:43.937,314.333
931,16 Apr 2024 21:55:41.839,16 Apr 2024 22:19:47.333,1445.494
932,16 Apr 2024 23:53:27.991,17 Apr 2024 00:23:24.179,1796.188
933,17 Apr 2024 01:53:24.107,17 Apr 2024 02:25:17.528,1913.421
934,17 Apr 2024 03:54:53.361,17 Apr 2024 04:25:35.445,1842.085
935,17 Apr 2024 05:58:09.041,17 Apr 2024 06:23:38.872,1529.831
936,17 Apr 2024 08:07:06.398,17 Apr 2024 08:15:59.064,532.667
937,17 Apr 2024 20:33:15.648,17 Apr 2024 20:49:33.548,977.900
938,17 Apr 2024 22:28:45.904,17 Apr 2024 22:55:13.335,1587.430
939,18 Apr 2024 00:27:25.947,18 Apr 2024 00:58:09.952,1844.005
940,18 Apr 2024 02:27:51.342,18 Apr 2024 02:59:37.048,1905.707
941,18 Apr 2024 04:29:46.608,18 Apr 2024 04:59:14.341,1767.733
942,18 Apr 2024 06:34:11.455,18 Apr 2024 06:55:56.912,1305.457
943,18 Apr 2024 21:05:06.627,18 Apr 2024 21:25:59.224,1252.597
944,18 Apr 2024 23:02:12.127,18 Apr 2024 23:30:11.778,1679.651
945,19 Apr 2024 01:01:31.197,19 Apr 2024 01:32:40.414,1869.217
946,19 Apr 2024 03:02:20.897,19 Apr 2024 03:33:36.439,1875.542
947,19 Apr 2024 05:04:51.756,19 Apr 2024 05:32:20.364,1648.608
948,19 Apr 2024 07:11:42.002,19 Apr 2024 07:26:38.432,896.430
949,19 Apr 2024 19:43:32.520,19 Apr 2024 19:54:40.401,667.881
950,19 Apr 2024 21:37:47.361,19 Apr 2024 22:01:24.250,1416.889
951,19 Apr 2024 23:35:51.565,20 Apr 2024 00:04:51.385,1739.820
952,20 Apr 2024 01:35:39.962,20 Apr 2024 02:06:54.226,1874.264
953,20 Apr 2024 03:36:54.196,20 Apr 2024 04:07:10.575,1816.379
954,20 Apr 2024 05:40:23.938,20 Apr 2024 06:04:40.946,1457.009
955,20 Apr 2024 20:14:30.810,20 Apr 2024 20:31:33.697,1022.887
956,20 Apr 2024 22:10:53.323,20 Apr 2024 22:36:16.977,1523.655
957,21 Apr 2024 00:09:38.289,21 Apr 2024 00:39:15.020,1776.731
958,21 Apr 2024 02:09:50.457,21 Apr 2024 02:40:47.818,1857.361
959,21 Apr 2024 04:11:36.799,21 Apr 2024 04:40:12.663,1715.865
960,21 Apr 2024 06:16:59.671,21 Apr 2024 06:35:45.799,1126.128
961,21 Apr 2024 20:46:43.513,21 Apr 2024 21:06:59.502,1215.989
962,21 Apr 2024 22:44:13.534,21 Apr 2024 23:10:48.730,1595.196
963,22 Apr 2024 00:43:28.283,22 Apr 2024 01:13:21.788,1793.505
964,22 Apr 2024 02:44:03.590,22 Apr 2024 03:14:16.184,1812.594
965,22 Apr 2024 04:46:41.013,22 Apr 2024 05:12:32.121,1551.108
966,22 Apr 2024 06:58:25.058,22 Apr 2024 07:01:59.963,214.904
967,22 Apr 2024 19:23:55.958,22 Apr 2024 19:36:32.431,756.473
968,22 Apr 2024 21:19:27.254,22 Apr 2024 21:41:45.564,1338.310
